[
    {
        "name": "Texas Rental Supply",
        "logo_url": "https://images.booqablecdn.com/assets/fb7126cc-9b11-4aa4-aaf6-dad2917f746a/cmdrjuzxp00ny3b6sociqeytx(2).ChatGPTImageJul312025at102353AM-318b1a3ee0dcfa9e22a9a9619e950b509ac4cf20c006ecccfcaad79db537e954.png",
        "phone": "737-377-2884",
        "email": "texasrentalsupply@gmail.com",
        "website": "https://texasrentalsupply.com",
        "city": "Austin",
        "state": "TX",
        "latitude": 30.2672,
        "longitude": -97.7431
    },
    {
        "name": "Diamond D Rentals LLC",
        "logo_url": "https://www.diamonddrentals.com/logo.webp",
        "phone": "(979) 716-7522",
        "email": "diamonddrentals@gmail.com",
        "website": "https://diamonddrentals.com",
        "city": "Austin",
        "state": "TX",
        "latitude": 30.2741,
        "longitude": -97.7404
    },
    {
        "name": "Austin Rent Way",
        "logo_url": "https://www.austinrentway.com/image/site_logo/9bd22b8cfc73-logo_1.0.png",
        "phone": "(512) 326-8181",
        "email": "service@austinrentway.com",
        "website": "https://austinrentway.com",
        "city": "Austin",
        "state": "TX",
        "latitude": 30.2312,
        "longitude": -97.7594
    },
    {
        "name": "Signature Trailer Rentals LLC.",
        "logo_url": "https://images.squarespace-cdn.com/content/v1/65e11f3c39b8966c3822dc8e/21d92546-bfd7-45cc-a7ae-06c7dd6f5e0c/+black+letters.png?format=1500w",
        "phone": "(615) 305-6499",
        "email": "landon@signaturetrailerrentals.com",
        "website": "https://signaturetrailerrentals.com",
        "city": "Nashville",
        "state": "TN",
        "latitude": 36.1627,
        "longitude": -86.7816
    },
    {
        "name": "Turnkey Trailer Rentals",
        "logo_url": "https://turnkeytrailerrentals.com/wp-content/uploads/2025/06/header_logo-1-scaled.png",
        "phone": "(629) 255-8260",
        "email": "turnkeyrentals@proton.me",
        "website": "https://turnkeytrailerrentals.com",
        "city": "Nashville",
        "state": "TN",
        "latitude": 36.1744,
        "longitude": -86.7679
    }
]